[
    {
        "name": "Airbnb",
        "address": "888 Brannan St., San Francisco, CA 94103",
        "description": "Home-sharing platform connecting travelers with hosts for unique stays and experiences worldwide.",
        "imageName": "airbnb.com.jpg",
        "id": "57f3c747-a7d2-4103-8a56-db119ddf2c54",
        "lat": 37.7716792,
        "lng": -122.4052001
    },
    {
        "name": "Twitch",
        "address": "350 Bush Street, San Francisco, CA 94104",
        "description": "Live streaming platform, primarily for gamers and creative content, acquired by Amazon in 2014.",
        "imageName": "twitch.tv.jpg",
        "id": "e424cea9-d54e-4a24-aa4b-b86a5c9d80c2",
        "lat": 37.7910081,
        "lng": -122.4033221
    },
    {
        "name": "Yelp",
        "address": "350 Mission Street, 10th Floor, San Francisco, CA 94105",
        "description": "Reviews and recommendations site for local businesses, restaurants, and services.",
        "imageName": "yelp.com.jpg",
        "id": "860565a1-a001-42c1-8a83-9e60c14d3b73",
        "lat": 37.7908745,
        "lng": -122.396719
    },
    {
        "name": "Roblox Corporation",
        "address": "3150 South Delaware Street, San Mateo, CA 94403",
        "description": "Online gaming platform and game creation system enabling users to create and play immersive 3D experiences.",
        "imageName": "roblox.com.jpg",
        "id": "b77a9476-4555-4a55-b76e-6bb96d5175ab",
        "lat": 37.5396188,
        "lng": -122.2980869
    },
    {
        "name": "Pixar",
        "address": "1200 Park Ave., Emeryville, CA 94608",
        "description": "Animation studio renowned for pioneering computer-generated feature films such as “Toy Story” and “Inside Out.”",
        "imageName": "pixar.com.jpg",
        "id": "3dbe2b86-d08d-407d-b9cb-54ec7008f040",
        "lat": 37.8329972,
        "lng": -122.284397
    },
    {
        "name": "Dolby Laboratories",
        "address": "1275 Market St FL 15, San Francisco, CA 94103",
        "description": "Audio technology company specializing in sound and imaging innovations for cinema, home, and mobile devices.",
        "imageName": "dolby.com.jpg",
        "id": "924cbfce-8477-4ec0-b4d9-c7540fdcc0eb",
        "lat": 37.7775176,
        "lng": -122.4157257
    },
    {
        "name": "Crunchyroll",
        "address": "835 Market St, 7th Floor, San Francisco, CA 94103",
        "description": "Anime streaming service offering a vast library of anime, manga, and Asian dramas.",
        "imageName": "crunchyroll.com.jpg",
        "id": "ba039614-e95c-4e2f-964b-ec47e3b2e52a",
        "lat": 37.7835219,
        "lng": -122.4068262
    },
    {
        "name": "Niantic",
        "address": "Suite 200, 1 Ferry Building, San Francisco, CA 94111",
        "description": "Developer of augmented reality mobile games including Pokémon GO and Ingress.",
        "imageName": "nianticlabs.com.jpg",
        "id": "eb50ac71-3f21-4814-a1d1-04a9e5ccee63",
        "lat": 37.7967868,
        "lng": -122.3932987
    },
    {
        "name": "Capcom U.S.A.",
        "address": "800 Concar Drive, Suite 300, San Mateo, CA 94402",
        "description": "U.S. arm of the Japanese video game publisher known for franchises like Street Fighter and Resident Evil.",
        "imageName": "capcom.com.jpg",
        "id": "79d92781-e5b3-4dbe-bdae-be82488e4b59",
        "lat": 37.5549806,
        "lng": -122.3003134
    },
    {
        "name": "Sony Interactive Entertainment (PlayStation)",
        "address": "2207 Bridgepointe Parkway, San Mateo, CA 94404",
        "description": "Gaming division of Sony, responsible for PlayStation consoles, games, and network services.",
        "imageName": "playstation.com.jpg",
        "id": "86a48335-15cb-4d75-9d80-7d4737c3708b",
        "lat": 37.5616721,
        "lng": -122.2842386
    },
    {
        "name": "Industrial Light & Magic",
        "address": "PO Box 29909, San Francisco, CA 94129",
        "description": "Visual effects studio founded by George Lucas, known for groundbreaking effects in film and television.",
        "imageName": "ilm.com.jpg",
        "id": "8b4f7651-92fe-441b-a0ae-cb114abd75ae",
        "lat": 37.7749295,
        "lng": -122.4194155
    },
    {
        "name": "Lucasfilm Animation",
        "address": "One Letterman Dr, San Francisco, CA 94133",
        "description": "Animation studio producing animated features and series set in the Star Wars universe; based in San Rafael but precise HQ address not confirmed.",
        "imageName": "lucasfilm.com.jpg",
        "id": "d7ee5367-d41a-4558-a049-cf4922f1c10c",
        "lat": 37.7983937,
        "lng": -122.4508838
    },
    {
        "name": "Skywalker Sound",
        "address": "Skywalker Ranch, Marin County, CA (exact address not public)",
        "description": "Audio post-production company specializing in sound design and mixing for film, television, and games.",
        "imageName": "skywalkersound.com.jpg",
        "id": "66959b6d-5755-46cb-9b27-3bf1a1b00889",
        "lat": 38.0593845,
        "lng": -122.6543768
    },
    {
        "name": "SurveyMonkey",
        "address": "910 Park Pl Ste 300, San Mateo, CA 94403",
        "description": "Online survey development and cloud-based software company; HQ in San Mateo but address not confirmed.",
        "imageName": "surveymonkey.com.jpg",
        "id": "f921cd4f-332c-4184-9148-3d2be9f8096e",
        "lat": 37.5436426,
        "lng": -122.2928685
    },
    {
        "name": "Zendesk",
        "address": "181 Fremont St. San Francisco, CA 94105",
        "description": "Provider of customer service and engagement software for businesses; HQ in San Francisco but address not confirmed.",
        "imageName": "zendesk.com.jpg",
        "id": "5dccc367-a5a4-48ca-a2e5-d013bca77239",
        "lat": 37.7896113,
        "lng": -122.3954593
    },
    {
        "name": "Autodesk",
        "address": "One Market, Ste. 400, San Francisco, CA 94105",
        "description": "Global leader in 3D design, engineering, and entertainment software, best known for AutoCAD, Revit, and Maya.",
        "imageName": "autodesk.com.jpg",
        "id": "08835d9b-795b-4c81-b3fa-0e17281edff5",
        "lat": 37.7932577,
        "lng": -122.3944272
    },
    {
        "name": "Discord",
        "address": "444 De Haro Street, Suite 200, San Francisco, CA 94107",
        "description": "Voice, video, and text chat platform popular with gaming and online communities, used for group communication and collaboration.",
        "imageName": "discord.com.jpg",
        "id": "00f00765-e51a-43d8-a17b-93b6429383f1",
        "lat": 37.764616,
        "lng": -122.4018618
    },
    {
        "name": "Twilio",
        "address": "101 Spear Street, Fifth Floor, San Francisco, CA 94105",
        "description": "Cloud communications platform enabling businesses to integrate voice, SMS, and other messaging services into their applications via APIs.",
        "imageName": "twilio.com.jpg",
        "id": "4c575fda-775b-4ea5-987a-95948ba12def",
        "lat": 37.7920276,
        "lng": -122.3931103
    },
    {
        "name": "Asana",
        "address": "633 Folsom St, Suite 100, San Francisco, CA 94107",
        "description": "Work management platform designed to help teams organize, track, and manage their projects and tasks.",
        "imageName": "asana.com.jpg",
        "id": "76403dd0-937e-43e2-a5ee-15400f1c0c2c",
        "lat": 37.7846034,
        "lng": -122.3973043
    },
    {
        "name": "Cloudflare",
        "address": "101 Townsend St, San Francisco, CA 94107",
        "description": "Web infrastructure and security company providing content delivery network (CDN), DDoS mitigation, and internet security services.",
        "imageName": "cloudflare.com.jpg",
        "id": "ebd67e5f-5754-4a1a-8d63-e3bd8eedb89b",
        "lat": 37.78022259999999,
        "lng": -122.3905874
    },
    {
        "name": "Okta",
        "address": "100 First Street, Suite 600, San Francisco, CA 94105",
        "description": "Identity and access management company offering secure authentication and single sign-on solutions for enterprises.",
        "imageName": "okta.com.jpg",
        "id": "33ec23e7-6bdd-4f97-afaa-3226fff14575",
        "lat": 37.7894956,
        "lng": -122.397478
    },
    {
        "name": "Fastly",
        "address": "475 Brannan St, Suite 300, San Francisco, CA 94107",
        "description": "Edge cloud platform delivering content delivery, security, and edge computing services for websites and applications.",
        "imageName": "fastly.com.jpg",
        "id": "76a25817-4023-466f-b96c-7085385df6f6",
        "lat": 37.7786899,
        "lng": -122.3955703
    },
    {
        "name": "PagerDuty",
        "address": "600 Townsend St, Suite 200, San Francisco, CA 94103",
        "description": "Incident response platform for IT departments, helping organizations manage and resolve critical incidents quickly.",
        "imageName": "pagerduty.com.jpg",
        "id": "ebdd3538-2345-440b-ba01-ba48c712821f",
        "lat": 37.771696,
        "lng": -122.4025698
    },
    {
        "name": "Databricks",
        "address": "160 Spear Street, Suite 1300, San Francisco, CA 94105",
        "description": "Data and AI company known for its unified analytics platform built on Apache Spark, enabling big data processing and machine learning.",
        "imageName": "databricks.com.jpg",
        "id": "6461508e-86a4-45ec-b190-e73eb1ecc984",
        "lat": 37.79131599999999,
        "lng": -122.393725
    },
    {
        "name": "Snowflake",
        "address": "106 East Babcock Street, Suite 3A, Bozeman, MT 59715",
        "description": "Cloud-based data warehousing company providing scalable storage and analytics solutions for enterprise data.",
        "imageName": "snowflake.com.jpg",
        "id": "d6c7082f-ebdb-4ef2-9613-dfa8eb50f596",
        "lat": 45.677979,
        "lng": -111.0348157
    },
    {
        "name": "Coinbase",
        "address": "548 Market St, Suite 23008, San Francisco, CA 94104",
        "description": "Cryptocurrency exchange platform enabling users to buy, sell, and store digital assets like Bitcoin and Ethereum.",
        "imageName": "coinbase.com.jpg",
        "id": "6c75c200-2f81-4140-a8e0-27966cb03241",
        "lat": 37.7908517,
        "lng": -122.4006138
    },
    {
        "name": "Zoox",
        "address": "1149 Chess Dr, Foster City, CA 94404",
        "description": "Autonomous vehicle company developing self-driving cars and mobility solutions for urban environments.",
        "imageName": "zoox.com.jpg",
        "id": "ca1eae68-cd44-4576-b84f-a6fce151cf3f",
        "lat": 37.56771,
        "lng": -122.27274
    },
    {
        "name": "Lime",
        "address": "85 2nd St, San Francisco, CA 94105",
        "description": "Micromobility company offering electric scooter and bike rentals for urban transportation.",
        "imageName": "li.me.jpg",
        "id": "6f62cee8-0fa3-49fe-bb29-40de83d6affb",
        "lat": 37.7883503,
        "lng": -122.3997377
    },
    {
        "name": "Cruise",
        "address": "333 Brannan St, San Francisco, CA 94107",
        "description": "Developer of autonomous vehicle technology focused on self-driving cars for ride-hailing services.",
        "imageName": "getcruise.com.jpg",
        "id": "ec345b02-af64-4579-b61a-eb413475649a",
        "lat": 37.7808673,
        "lng": -122.3925739
    },
    {
        "name": "ChargePoint",
        "address": "240 East Hacienda Avenue, Campbell, CA 95008",
        "description": "Provider of electric vehicle charging infrastructure and networked charging solutions for businesses and drivers.",
        "imageName": "chargepoint.com.jpg",
        "id": "c823da3d-11c3-44ea-988a-de293643f8cb",
        "lat": 37.2666902,
        "lng": -121.9570536
    },
    {
        "name": "NerdWallet",
        "address": "55 Hawthorne St, 10th Floor, San Francisco, CA 94105",
        "description": "Personal finance company offering tools and advice for credit cards, loans, investing, and financial decision-making.",
        "imageName": "nerdwallet.com.jpg",
        "id": "44e9e35b-0994-4c91-a8c2-86646ad61c94",
        "lat": 37.7855152,
        "lng": -122.3987364
    },
    {
        "name": "Quora",
        "address": "650 Castro St, Suite 450, Mountain View, CA 94041",
        "description": "Question-and-answer platform where users share knowledge and expertise on a wide range of topics.",
        "imageName": "quora.com.jpg",
        "id": "179771d0-3f79-4daa-8709-fb6fc26e61c5",
        "lat": 37.3880555,
        "lng": -122.0822826
    },
    {
        "name": "Replit",
        "address": "767 Bryant St, San Francisco, CA 94107",
        "description": "Online coding platform enabling users to write, run, and collaborate on code in multiple programming languages.",
        "imageName": "replit.com.jpg",
        "id": "88807271-d295-482c-b4b7-eaa0269b08b1",
        "lat": 37.7763746,
        "lng": -122.4016047
    },
    {
        "name": "Wikimedia Foundation",
        "address": "1 Montgomery Street, Suite 1600, San Francisco, CA 94104",
        "description": "Nonprofit organization that operates Wikipedia and other free knowledge projects.",
        "imageName": "wikimedia.org.jpg",
        "id": "649d5175-7924-4780-a301-0bdc38677635",
        "lat": 37.7892447,
        "lng": -122.4022503
    },
    {
        "name": "Glassdoor",
        "address": "300 Mission St, 16th Floor, San Francisco, CA 94105",
        "description": "Online platform where jobseekers can search for jobs, research potential employers, and read anonymous company reviews and salary information. Founded in 2007, Glassdoor is known for its transparency and user-generated insights into workplace culture.",
        "imageName": "glassdoor.com.jpg",
        "id": "db2611f3-78fa-4500-be70-37eba62b13d7",
        "lat": 37.7913266,
        "lng": -122.3963941
    },
    {
        "name": "Chegg",
        "address": "3990 Freedom Circle, Santa Clara, CA 95054-1204",
        "description": "Education technology company providing homework help, textbook rentals, online tutoring, and other student services.",
        "imageName": "chegg.com.jpg",
        "id": "00cfd19a-6b67-4633-b052-de949ca39745",
        "lat": 37.3885666,
        "lng": -121.972258
    },
    {
        "name": "Udemy",
        "address": "600 Harrison Street, 3rd Floor, San Francisco, CA 94107",
        "description": "Online learning and teaching platform offering a vast range of courses in business, technology, personal development, and more.",
        "imageName": "udemy.com.jpg",
        "id": "54fd1fa0-13d2-4564-946d-c706c9c87cd8",
        "lat": 37.7841915,
        "lng": -122.3958981
    },
    {
        "name": "Poshmark",
        "address": "203 Redwood Shores Parkway, 8th Floor, Redwood City, CA 94065",
        "description": "Social commerce marketplace for buying and selling new and second-hand fashion, home goods, and electronics.",
        "imageName": "poshmark.com.jpg",
        "id": "dfc85c25-17e2-4fcb-b537-3d90c4fcf028",
        "lat": 37.5211409,
        "lng": -122.2545364
    },
    {
        "name": "Stitch Fix",
        "address": "One Montgomery Tower, Suite 1500, San Francisco, CA 94104",
        "description": "Online personal styling service using expert stylists and AI to recommend clothing and accessories tailored to individual tastes.",
        "imageName": "stitchfix.com.jpg",
        "id": "afb32da1-c05d-4d9e-84e8-36acfa65929b",
        "lat": 37.7892748,
        "lng": -122.4035729
    },
    {
        "name": "Eventbrite",
        "address": "95 Third Street, 2nd Floor, San Francisco, CA 94103",
        "description": "Online event management and ticketing platform enabling users to browse, create, and promote local events.",
        "imageName": "eventbrite.com.jpg",
        "id": "24719c1e-74ab-4498-9ba3-da2025142c26",
        "lat": 37.7866019,
        "lng": -122.4021831
    },
    {
        "name": "ServiceNow",
        "address": "2225 Lawson Lane, Santa Clara, CA 95054",
        "description": "Cloud-based platform for automating enterprise workflows, specializing in IT service management and business process automation.",
        "imageName": "servicenow.com.jpg",
        "id": "50f9bb21-b3a6-4036-b92c-1118396d6464",
        "lat": 37.3758349,
        "lng": -121.9627351
    },
    {
        "name": "VMware",
        "address": "3401 Hillview Avenue, Palo Alto, CA 94304",
        "description": "Virtualization and cloud computing company known for its hypervisor and software solutions for data centers and enterprise IT.",
        "imageName": "vmware.com.jpg",
        "id": "a7879f17-1576-4b2e-ac16-6669c59828ba",
        "lat": 37.401373,
        "lng": -122.1438228
    },
    {
        "name": "Mozilla",
        "address": "149 New Montgomery Street, 4th Floor, San Francisco, CA 94105",
        "description": "Nonprofit organization and software community best known for the Firefox browser and for promoting open standards and free software.",
        "imageName": "mozilla.org.jpg",
        "id": "af42c6d2-747c-4119-b280-2dd94e0b1e2d",
        "lat": 37.7869417,
        "lng": -122.3996013
    },
    {
        "name": "McAfee",
        "address": "6220 America Center Drive, America Center Building 4, San Jose, CA 95002",
        "description": "Global cybersecurity company providing antivirus, endpoint security, and online protection solutions for consumers and businesses.",
        "imageName": "mcafee.com.jpg",
        "id": "653150be-9386-4fd1-8c85-67c867475e78",
        "lat": 37.4185772,
        "lng": -121.9782146
    },
    {
        "name": "Malwarebytes",
        "address": "3979 Freedom Circle, 12th Floor, Santa Clara, CA 95054",
        "description": "Cybersecurity company specializing in malware detection, removal, and protection software for individuals and organizations.",
        "imageName": "malwarebytes.com.jpg",
        "id": "f878e004-6342-4c75-999d-e2fae040c922",
        "lat": 37.3880338,
        "lng": -121.9740691
    },
    {
        "name": "Shutterfly",
        "address": "10 Almaden Boulevard, San Jose, CA 95113",
        "description": "Online photo service offering photo books, personalized gifts, prints, and other custom photo products.",
        "imageName": "shutterfly.com.jpg",
        "id": "85ab6a7c-5a7b-424d-af2c-92928c52a4db",
        "lat": 37.3337307,
        "lng": -121.8937927
    },
    {
        "name": "Zazzle",
        "address": "1800 Seaport Blvd, Redwood City, CA 94063",
        "description": "Online marketplace for custom products, allowing designers and makers to sell personalized goods to consumers worldwide.",
        "imageName": "zazzle.com.jpg",
        "id": "fc1f4127-12ca-4ed3-8bd8-a60673260090",
        "lat": 37.5108541,
        "lng": -122.2014758
    },
    {
        "name": "Brave",
        "address": "512 2nd St, San Francisco, CA 94107",
        "description": "Privacy-focused software company best known for the Brave browser, which blocks ads and trackers by default.",
        "imageName": "brave.com.jpg",
        "id": "b5429dd4-52c7-49f4-a99e-cf02045131b3",
        "lat": 37.7827092,
        "lng": -122.3935642
    },
    {
        "name": "Scribd",
        "address": "460 Bryant St #100, San Francisco, CA 94107",
        "description": "Digital library and subscription service offering ebooks, audiobooks, magazines, and documents to readers worldwide.",
        "imageName": "scribd.com.jpg",
        "id": "5c1e6277-e43f-42c7-9361-cdfd4a70a59e",
        "lat": 37.78213830000001,
        "lng": -122.3952717
    },
    {
        "name": "Medium",
        "address": "799 Market St, 5th Floor, San Francisco, CA 94103",
        "description": "Online publishing platform for articles and blogs, connecting writers and readers through a subscription-based model.",
        "imageName": "medium.com.jpg",
        "id": "2a7fd46e-3a08-4aee-94aa-0cc85e405f7e",
        "lat": 37.7858846,
        "lng": -122.4052894
    }
]